City_ID,City,Lat,Lng,Max Temp,Humidity,Cloudiness,Wind Speed,Country,Date
0,albany,42.6001,-73.9662,29.89,58,0,0.89,US,1720368008
1,bethel,41.3712,-73.414,30.36,71,80,0.45,US,1720368141
2,puerto ayora,-0.7393,-90.3518,24.98,89,29,2.24,EC,1720368296
3,port-aux-francais,-49.35,70.2167,1.33,82,88,12.15,TF,1720368297
4,margaret river,-33.95,115.0667,15.69,58,52,5.08,AU,1720368298
5,cumana,10.4635,-64.1775,27.62,76,21,2.74,VE,1720368299
6,pisco,-13.7,-76.2167,18.03,82,0,3.6,PE,1720368300
7,waitangi,-43.9535,-176.5597,7.12,85,78,4.02,NZ,1720368301
8,morehead city,34.7229,-76.726,32.01,78,0,7.2,US,1720368303
9,sabang,5.8933,95.3214,28.54,78,88,5.44,ID,1720368304
10,hawaiian paradise park,19.5933,-154.9731,21.13,91,43,1.79,US,1720368305
11,grytviken,-54.2811,-36.5092,-3.49,67,69,2.6,GS,1720368306
12,acarau,-2.8856,-40.12,30.13,60,81,5.8,BR,1720368307
13,utrik,11.2278,169.8474,27.83,80,100,6.28,MH,1720368308
14,uturoa,-16.7333,-151.4333,26.06,79,5,7.87,PF,1720368309
15,olonkinbyen,70.9221,-8.7187,1.5,85,66,3.33,SJ,1720368310
16,avarua,-21.2078,-159.775,22.03,88,75,2.06,CK,1720368311
17,georgetown,5.4112,100.3354,27.97,65,20,2.24,MY,1720368168
18,edinburgh of the seven seas,-37.0676,-12.3116,13.66,77,3,13.85,SH,1720368313
19,puerto natales,-51.7236,-72.4875,0.25,93,75,2.57,CL,1720368314
20,yellowknife,62.456,-114.3525,21.29,49,75,2.06,CA,1720368087
21,hamilton,39.1834,-84.5333,29.48,56,0,1.34,US,1720368032
22,hermanus,-34.4187,19.2345,8.78,79,98,15.43,ZA,1720368317
23,udachny,66.4167,112.4,17.57,73,31,2.97,RU,1720368096
24,manggar,-2.8833,108.2667,27.12,80,100,3.19,ID,1720368320
25,luchegorsk,46.4764,134.2569,19.24,97,32,0.39,RU,1720368321
26,la'ie,21.6477,-157.9253,23.58,75,3,5.47,US,1720368322
27,rybnaya sloboda,55.4613,50.1409,19.89,64,0,5.28,RU,1720368323
28,rongelap,11.1635,166.8941,28.18,79,15,7.06,MH,1720368324
29,port mathurin,-19.6833,63.4167,23.15,72,66,7.81,MU,1720368325
30,sarangani,5.4033,125.4636,28.75,75,21,2.4,PH,1720368326
31,adamstown,-25.066,-130.1015,19.46,69,100,10.68,PN,1720368327
32,montelibano,7.9829,-75.4229,29.5,73,27,1.13,CO,1720368328
33,suva,-18.1416,178.4415,21.71,73,75,3.09,FJ,1720368329
34,saint-pierre,-21.3393,55.4781,21.82,73,75,1.54,RE,1720368330
35,invercargill,-46.4,168.35,10.01,80,71,4.92,NZ,1720368222
36,lebu,-37.6167,-73.65,9.48,74,13,6.87,CL,1720368153
37,aykhal,66.0,111.5,16.24,76,17,2.3,RU,1720368333
38,dolinsk,47.35,142.8,12.07,99,100,1.97,RU,1720368334
39,arauca,7.0847,-70.7591,28.0,89,40,0.51,CO,1720368335
40,olyokminsk,60.3736,120.4264,15.41,68,16,2.13,RU,1720368337
41,ta`u,-14.2336,-169.5144,26.93,78,6,6.13,AS,1720368338
42,bredasdorp,-34.5322,20.0403,10.11,82,93,12.19,ZA,1720368339
43,howrah,22.5892,88.3103,29.0,89,40,3.09,IN,1720368091
44,west island,-12.1568,96.8225,27.99,89,20,6.17,CC,1720368341
45,papao,-17.75,-149.55,23.82,81,33,9.12,PF,1720368342
46,temiskaming shores,47.4938,-79.7153,23.89,52,5,0.48,CA,1720368343
47,nemuro,43.3236,145.575,14.06,100,100,3.14,JP,1720368344
48,anadyr,64.75,177.4833,12.28,81,40,11.62,RU,1720368070
49,san sebastian de la gomera,28.0916,-17.1133,26.88,73,20,3.09,ES,1720368346
50,sandnessjoen,66.0217,12.6316,19.29,63,20,6.17,NO,1720368347
51,minas de matahambre,22.5887,-83.9447,31.82,59,6,4.87,CU,1720368348
52,stanley,54.868,-1.6985,15.99,87,20,4.63,GB,1720368250
53,ola,59.5833,151.2833,9.97,95,100,0.96,RU,1720368350
54,yangjiang,21.85,111.9667,27.83,83,44,2.53,CN,1720368351
55,aasiaat,68.7098,-52.8699,3.21,92,83,2.55,GL,1720368353
56,port alfred,-33.5906,26.891,16.77,46,69,4.02,ZA,1720368354
57,bilao,11.488,122.5599,25.07,97,100,0.57,PH,1720368355
58,howard springs,-12.497,131.047,24.95,91,99,1.61,AU,1720368356
59,poltavka,54.3663,71.7632,17.33,88,100,5.24,RU,1720368357
60,yuzhno-kurilsk,44.0306,145.8556,13.47,100,100,1.99,RU,1720368358
61,port elizabeth,-33.918,25.5701,18.16,39,0,9.26,ZA,1720368180
62,piti village,13.4626,144.6933,27.49,91,20,2.57,GU,1720368361
63,kavieng,-2.5744,150.7967,25.85,87,100,4.06,PG,1720368362
64,sisimiut,66.9395,-53.6735,8.56,73,100,3.37,GL,1720368363
65,kill devil hills,36.0307,-75.676,31.0,70,0,4.12,US,1720368364
66,arraial do cabo,-22.9661,-42.0278,25.98,69,0,6.17,BR,1720368158
67,longyearbyen,78.2186,15.6401,5.91,81,75,3.6,SJ,1720368178
68,hovd,48.0056,91.6419,18.76,51,50,1.75,MN,1720368367
69,narvik,68.4384,17.4272,19.03,64,63,3.35,NO,1720368368
70,bilibino,68.0546,166.4372,7.6,93,100,1.54,RU,1720368370
71,urangan,-25.3,152.9,17.81,83,66,4.78,AU,1720368371
72,karasuk,53.7377,78.0403,19.34,92,96,3.8,RU,1720368372
73,montepuez,-13.1256,38.9997,21.0,38,1,1.45,MZ,1720368373
74,huilong,31.8111,121.655,27.49,84,100,3.9,CN,1720368374
75,flying fish cove,-10.4217,105.6791,25.82,94,100,4.63,CX,1720368375
76,saipan,15.1355,145.701,29.16,75,46,5.57,MP,1720368087
77,katsuren-haebaru,26.3369,127.8719,29.01,89,0,2.06,JP,1720368377
78,carnarvon,-24.8667,113.6333,17.64,84,0,3.77,AU,1720368378
79,afaahiti,-17.75,-149.2833,22.93,82,67,8.74,PF,1720368379
80,gulu,2.7746,32.299,18.95,94,91,1.7,UG,1720368380
81,nelson bay,-32.7167,152.15,13.38,96,94,0.45,AU,1720368381
82,ravar,31.2656,56.8055,33.6,12,14,3.04,IR,1720368382
83,kragero,58.8693,9.4149,19.14,54,79,8.5,NO,1720368384
84,laojunmiao,39.8333,97.7333,17.18,58,84,1.4,CN,1720368385
85,thompson,55.7435,-97.8558,18.09,77,75,5.14,CA,1720368386
86,new norfolk,-42.7826,147.0587,4.72,95,0,1.32,AU,1720368388
87,skeldon,5.8833,-57.1333,29.02,74,69,2.44,GY,1720368389
88,tazovsky,67.4667,78.7,13.67,68,5,4.5,RU,1720368391
89,pirai do sul,-24.5261,-49.9486,22.4,41,8,4.06,BR,1720368294
90,el granada,37.5027,-122.4694,22.02,80,20,4.12,US,1720368348
91,alice springs,-23.7,133.8833,7.75,100,100,1.54,AU,1720368394
92,ribeira grande,38.5167,-28.7,25.22,83,40,7.72,PT,1720368395
93,corinto,37.9407,22.9573,30.5,23,0,4.04,GR,1720368396
94,taoudenni,22.6783,-3.9836,48.03,6,18,3.86,ML,1720368397
95,punta arenas,-53.15,-70.9167,3.06,87,100,6.17,CL,1720368351
96,newman,37.3138,-121.0208,33.46,17,0,0.62,US,1720368218
97,iqaluit,63.7506,-68.5145,7.85,71,75,2.06,CA,1720368400
98,tsiombe,-25.3,45.4833,17.98,65,2,2.51,MG,1720368401
99,nishinoomote,30.7333,131.0,27.33,87,13,4.14,JP,1720368402
100,cabo san lucas,22.8909,-109.9124,34.54,53,0,4.44,MX,1720368166
101,camlachie,43.036,-82.1616,24.95,84,1,1.32,CA,1720368407
102,hadibu,12.65,54.0333,26.17,78,97,7.34,YE,1720368408
103,ushuaia,-54.8,-68.3,-0.19,74,0,4.12,AR,1720368180
104,guerrero negro,27.9769,-114.0611,24.22,60,0,2.71,MX,1720368410
105,hotan,37.0997,79.9269,30.25,17,94,4.48,CN,1720368412
106,woodward,36.4337,-99.3904,24.57,68,40,5.66,US,1720368414
107,lienz,46.8289,12.769,20.1,74,100,2.94,AT,1720368415
108,constantia,44.1833,28.65,29.38,58,0,3.49,RO,1720368416
109,mumford,5.2618,-0.759,25.75,81,54,6.23,GH,1720368417
110,iskateley,67.6803,53.1512,20.31,53,62,2.14,RU,1720368418
111,walvis bay,-22.9575,14.5053,15.61,67,9,8.5,NA,1720368420
112,blackmans bay,-43.0167,147.3167,4.07,88,0,3.15,AU,1720368190
113,jamestown,42.097,-79.2353,26.4,59,40,2.57,US,1720368422
114,sao joao da barra,-21.6403,-41.0511,28.05,77,65,5.71,BR,1720368125
115,zaozersk,69.4005,32.4476,13.48,89,100,7.85,RU,1720368424
116,alotau,-10.3069,150.4462,22.09,91,80,2.12,PG,1720368425
117,khorixas,-20.3667,14.9667,21.04,15,0,5.4,NA,1720368426
118,swakopmund,-22.6833,14.5333,15.55,82,15,3.13,NA,1720368427
119,santa terezinha,-29.9002,-50.0904,12.27,92,100,2.55,BR,1720368428
120,korla,41.7597,86.1469,28.26,19,0,3.6,CN,1720368429
121,qaqortoq,60.7167,-46.0333,6.65,89,75,1.53,GL,1720368430
122,whitehorse,60.7161,-135.0538,13.94,55,100,0.45,CA,1720368431
123,arteche,12.2645,125.4048,26.77,88,100,2.38,PH,1720368432
124,perth,-31.9333,115.8333,12.69,91,75,3.09,AU,1720368433
125,papatowai,-46.5619,169.4708,8.4,81,76,6.69,NZ,1720368435
126,kanggye,40.9695,126.5852,20.44,97,100,0.74,KP,1720368436
127,college,64.8569,-147.8028,10.99,93,100,3.09,US,1720368438
128,ust-nera,64.5667,143.2,6.81,98,95,2.15,RU,1720368439
129,khasab,26.1799,56.2477,35.09,38,7,4.12,OM,1720368440
130,petropavlovsk-kamchatsky,53.0452,158.6483,8.33,93,100,0.0,RU,1720368441
131,nova sintra,14.8667,-24.7167,25.24,74,97,3.42,CV,1720368442
132,cidreira,-30.1811,-50.2056,12.86,90,100,3.05,BR,1720368443
133,susuman,62.7833,148.1667,8.26,90,68,1.37,RU,1720368444
134,kavaratti,10.5669,72.642,28.29,82,100,7.42,IN,1720368445
135,sinabang,2.4803,96.3801,26.4,85,93,3.16,ID,1720368446
136,urucara,-2.5364,-57.76,35.16,36,10,2.58,BR,1720368218
137,alofi,-19.0595,-169.9187,21.94,68,20,5.14,NU,1720368448
138,sarakhs,36.5449,61.1577,33.21,18,0,4.53,IR,1720368449
139,nakhon si thammarat,8.25,100.0,25.26,89,100,3.13,TH,1720368450
140,haiku-pauwela,20.9219,-156.3051,23.36,77,40,4.47,US,1720368451
141,qingdao,36.0986,120.3719,22.78,94,75,3.0,CN,1720368452
142,lazaro cardenas,17.9583,-102.2,28.96,68,84,0.74,MX,1720368453
143,remire-montjoly,4.9167,-52.2667,32.02,62,20,5.14,GF,1720368454
144,conception bay south,47.4999,-52.9981,19.4,97,100,5.45,CA,1720368455
145,pangoa,-12.1167,-73.0,27.08,64,97,0.63,PE,1720368458
146,mili,6.0815,171.735,28.42,73,100,6.26,MH,1720368459
147,road town,18.4167,-64.6167,32.05,70,40,6.17,VG,1720368442
148,gunnedah,-30.9833,150.25,10.32,75,100,2.24,AU,1720368462
149,nagqu,31.5,92.0,9.0,82,100,1.62,CN,1720368463
150,portland,45.5234,-122.6762,26.72,56,0,0.89,US,1720368464
151,mezhdurechenskiy,59.6,65.9333,19.52,63,3,2.12,RU,1720368465
152,tiksi,71.6872,128.8694,3.17,78,0,3.39,RU,1720368466
153,callao,-12.0667,-77.15,21.34,86,98,5.09,PE,1720368447
154,terbanggi besar,-4.8667,105.2333,24.98,89,92,1.02,ID,1720368468
155,naze,28.3667,129.4833,26.77,87,1,3.1,JP,1720368469
156,kintinku,-5.8833,35.2333,26.04,38,52,2.4,TZ,1720368470
157,fale old settlement,-9.3852,-171.2468,27.81,79,61,4.84,TK,1720368471
158,oranjemund,-28.55,16.4333,13.24,70,95,9.87,NA,1720368472
159,douz,33.4663,9.0203,43.6,10,0,3.13,TN,1720368474
160,fort mcmurray,56.7268,-111.381,20.54,60,87,1.97,CA,1720368475
161,nar'yan-mar,67.6713,53.087,20.31,54,63,2.02,RU,1720368476
162,kenora,49.8167,-94.4337,22.1,68,79,1.79,CA,1720368477
163,dudinka,69.4058,86.1778,17.1,50,2,7.62,RU,1720368478
164,charters towers,-20.1,146.2667,16.13,88,19,4.04,AU,1720368479
165,isafjordur,66.0755,-23.124,11.02,71,20,8.75,IS,1720368480
166,yoro,15.1333,-87.1333,26.34,82,100,0.33,HN,1720368481
167,tanda,26.55,82.65,27.19,87,94,3.87,IN,1720368482
168,visby,57.6409,18.296,20.02,59,0,10.8,SE,1720368483
169,lorengau,-2.0226,147.2712,25.71,86,100,1.15,PG,1720368484
170,ilulissat,69.2167,-51.1,11.01,66,40,2.57,GL,1720368485
171,mount gambier,-37.8333,140.7667,10.41,72,84,4.13,AU,1720368486
172,enewetak,11.3474,162.3373,28.36,80,32,6.61,MH,1720369002
173,mukalla,14.5425,49.1242,31.09,66,100,0.47,YE,1720368830
174,kingston,17.997,-76.7936,31.76,66,20,9.26,JM,1720368996
175,kodiak,57.79,-152.4072,10.73,87,100,2.06,US,1720369006
176,san patricio,28.017,-97.5169,32.05,71,91,6.93,US,1720369007
177,farkhar,36.5729,69.8578,22.07,27,0,1.06,AF,1720369008
178,danielskuil,-28.1887,23.5395,6.31,58,25,12.85,ZA,1720369010
179,barcelos,41.5388,-8.6151,19.82,50,34,4.77,PT,1720368996
180,fortuna,40.5982,-124.1573,19.99,92,0,0.0,US,1720369012
181,ulsteinvik,62.3432,5.8487,14.07,80,100,3.13,NO,1720369013
182,akureyri,65.6835,-18.0878,10.96,58,0,4.63,IS,1720369016
183,shache,38.4167,77.2406,27.88,23,99,2.76,CN,1720369017
184,jucas,-6.5253,-39.5275,30.89,45,80,4.06,BR,1720369018
185,dubbo,-32.25,148.6167,11.07,87,75,6.17,AU,1720369019
186,buala,-8.145,159.5921,26.33,85,99,5.42,SB,1720369020
187,mahibadhoo,3.7833,72.9667,28.82,74,100,4.15,MV,1720369021
188,puerto aysen,-45.4,-72.7,5.47,99,100,0.74,CL,1720368895
189,san antonio de pale,-1.4014,5.6325,23.12,83,52,5.94,GQ,1720369023
190,natchitoches,31.7668,-93.1335,28.47,83,40,0.0,US,1720369023
191,teguise,29.0605,-13.564,24.12,53,20,10.29,ES,1720369025
192,talnakh,69.4865,88.3972,18.03,47,2,6.0,RU,1720369026
193,antanifotsy,-19.65,47.3167,10.39,51,1,0.57,MG,1720369027
194,jayapura,-2.5333,140.7,25.66,95,100,2.28,ID,1720369028
195,altay,47.8667,88.1167,17.2,56,40,2.39,CN,1720369030
196,cururupu,-1.8283,-44.8683,29.67,61,71,2.35,BR,1720368786
197,xining,36.6167,101.7667,14.77,92,100,0.17,CN,1720369032
198,popondetta,-8.7537,148.2534,22.71,88,61,0.97,PG,1720369033
199,hasaki,35.7333,140.8333,25.22,91,41,0.82,JP,1720369034
200,wailua homesteads,22.0669,-159.378,23.44,84,20,5.14,US,1720369035
201,khandyga,62.6667,135.6,10.09,78,23,1.18,RU,1720369036
202,happy valley-goose bay,53.3168,-60.3315,30.17,20,20,8.75,CA,1720369037
203,codrington,-38.2667,141.9667,9.55,70,54,5.2,AU,1720369038
204,sitka,57.0531,-135.33,13.94,77,100,6.69,US,1720369039
205,isiro,2.7739,27.616,19.93,96,100,0.96,CD,1720369041
206,mart'vili,42.4144,42.3792,26.03,90,57,2.29,GE,1720369042
207,pandan,14.0453,124.1694,28.07,78,100,3.55,PH,1720369043
208,jucurutu,-6.0339,-37.0203,33.96,33,57,7.25,BR,1720369044
209,obama,35.4958,135.746,25.48,87,32,2.12,JP,1720369045
210,holualoa,19.6228,-155.9522,20.31,85,87,2.86,US,1720369046
211,mponela,-13.5319,33.7401,16.29,28,12,2.74,MW,1720369047
212,flin flon,54.7682,-101.865,21.91,56,40,5.14,CA,1720368909
213,el ejido,36.7763,-2.8146,25.42,75,86,3.7,ES,1720369050
214,navia,43.5354,-6.7194,19.94,55,45,2.55,ES,1720369051
215,sarkand,45.41,79.9186,19.46,65,79,5.7,KZ,1720369052
216,port douglas,-16.4833,145.4667,22.38,85,72,5.5,AU,1720369053
217,dalgopol,43.05,27.35,27.84,34,0,4.51,BG,1720369055
218,shingu,33.7333,135.9833,25.2,86,68,2.58,JP,1720369056
219,buchanan,5.8808,-10.0467,26.53,74,92,5.58,LR,1720369057
220,vilyuysk,63.7553,121.6247,16.24,62,77,3.04,RU,1720369058
221,tagab,34.855,69.6492,24.09,26,0,0.44,AF,1720369059
222,lihue,21.9789,-159.3672,23.77,76,20,5.14,US,1720369060
223,taro,-8.3862,115.28,22.0,95,73,0.56,ID,1720369061
224,vilyuchinsk,52.9306,158.4028,9.15,87,79,0.77,RU,1720369062
225,launceston,-41.45,147.1667,7.86,87,100,2.06,AU,1720369063
226,forster,-32.1667,152.5167,10.77,100,88,1.59,AU,1720369065
227,chapadinha,-3.7417,-43.3603,33.12,41,33,1.39,BR,1720369066
228,ciudad lazaro cardenas,17.9583,-102.2,28.96,68,84,0.74,MX,1720369067
229,la passe,45.5549,-0.8967,22.23,58,62,4.64,FR,1720369068
230,port lincoln,-34.7333,135.8667,11.7,91,100,3.91,AU,1720368901
231,weno,7.4515,151.8468,28.62,76,35,5.23,FM,1720369070
232,pachperwa,27.5167,82.65,26.81,87,90,2.11,IN,1720369071
233,vorgashor,67.5833,63.95,21.05,65,96,1.52,RU,1720369073
234,tawau,4.2498,117.8871,26.07,85,62,2.59,MY,1720369074
235,puerto deseado,-47.7503,-65.8938,2.74,68,27,4.69,AR,1720369075
236,kerikeri,-35.2268,173.9474,11.62,92,15,1.88,NZ,1720369076
237,uyuni,-20.4597,-66.825,9.45,22,48,9.06,BO,1720368920
238,itaituba,-4.2761,-55.9836,34.09,49,20,3.09,BR,1720369078
239,novi pazar,43.1367,20.5122,29.86,51,0,1.02,RS,1720369079
240,sos'va,59.1766,61.8558,20.33,67,9,0.8,RU,1720369080
241,dongola,19.1667,30.4833,41.72,9,5,5.06,SD,1720369081
242,bikenibeu village,1.3673,173.1241,27.98,83,100,2.06,KI,1720369082
243,shahrud,36.4182,54.9763,27.36,21,44,7.65,IR,1720369083
244,opuwo,-18.0607,13.84,24.56,15,1,6.34,NA,1720369084
245,hanzhong,33.0728,107.0303,23.89,95,100,1.06,CN,1720369085
246,atafu village,-8.5421,-172.5159,27.83,79,15,4.55,TK,1720369086
247,kutum,14.2,24.6667,29.51,29,89,5.4,SD,1720369087
248,sinop,41.7711,34.8709,23.09,72,6,2.81,TR,1720369088
249,ajodhya,26.8,82.2,26.54,91,100,5.39,IN,1720369089
250,touros,-5.1989,-35.4608,26.55,81,36,6.52,BR,1720369090
251,labrador city,52.9463,-66.9114,20.95,49,75,4.63,CA,1720368912
252,sola,-13.8833,167.55,25.56,71,99,11.47,VU,1720369093
253,vadso,70.0744,29.7487,16.49,67,75,8.75,NO,1720369094
254,illizi,26.4833,8.4667,42.89,8,0,6.77,DZ,1720369095
255,saint-philippe,-21.3585,55.7679,21.77,79,45,2.22,RE,1720369096
256,aswan,24.0934,32.907,39.11,12,79,6.04,EG,1720369097
257,dickinson,29.4608,-95.0513,32.05,88,75,8.23,US,1720368939
258,solnechnyy,50.7214,136.6319,11.46,94,100,4.5,RU,1720369099
259,kharp,66.8014,65.8081,20.89,63,92,1.24,RU,1720369100
260,ambovombe,-25.1667,46.0833,18.94,61,13,3.84,MG,1720369101
261,kapuskasing,49.4169,-82.4331,27.05,47,0,4.12,CA,1720368962
262,xiaodian,39.2519,117.2178,23.0,88,0,3.0,CN,1720369103
263,utraula,27.3167,82.4167,26.82,86,100,3.66,IN,1720369104
264,rajaori,33.3833,74.3,24.58,72,23,1.14,IN,1720369105
265,preobrazheniye,42.9019,133.9064,16.98,100,99,0.74,RU,1720369106
266,diego de almagro,-26.3667,-70.05,20.42,17,0,1.6,CL,1720369079
267,glace bay,46.1969,-59.957,22.87,90,100,6.17,CA,1720369108
268,vila franca do campo,37.7167,-25.4333,23.23,63,47,4.68,PT,1720369109
269,teknaf,20.8624,92.3058,27.57,87,100,3.49,BD,1720369110
270,tura,25.5198,90.2201,24.95,94,62,1.76,IN,1720369111
271,general conesa,-40.1,-64.4333,6.4,56,4,2.68,AR,1720368877
272,worland,44.0169,-107.9554,21.45,48,3,1.81,US,1720369000
273,mahanoro,-19.9,48.8,20.28,82,0,0.89,MG,1720369115
274,krutinka,56.0055,71.5113,14.9,90,99,1.02,RU,1720369116
275,kaiyuan,23.6977,103.3037,21.71,94,58,3.37,CN,1720369117
276,nabire,-3.3667,135.4833,24.67,93,97,1.32,ID,1720369118
277,lanzhou,36.0564,103.7922,19.04,87,100,0.97,CN,1720369119
278,ancud,-41.8697,-73.8203,8.03,78,28,1.02,CL,1720369120
279,kismayo,-0.3582,42.5454,25.27,78,37,6.65,SO,1720369121
280,luderitz,-26.6481,15.1594,14.31,70,61,4.99,NA,1720369122
281,kailua-kona,19.6406,-155.9956,22.38,88,89,3.12,US,1720368957
282,bharuch,21.7,72.9667,29.17,79,100,7.16,IN,1720369125
283,igarka,67.4667,86.5833,13.39,72,81,1.52,RU,1720369127
284,cide,41.8921,33.0044,25.28,69,0,0.26,TR,1720369128
285,cam ranh,11.9214,109.1591,27.98,78,20,1.54,VN,1720369130
286,hassi messaoud,31.6804,6.0729,45.92,6,0,3.09,DZ,1720369131
287,bocaiuva,-17.1078,-43.815,26.84,30,73,1.38,BR,1720369132
288,laguna,38.421,-121.4238,35.3,42,0,2.57,US,1720369133
289,goundam,16.4145,-3.6708,39.68,24,100,5.37,ML,1720369135
290,sao miguel do araguaia,-13.275,-50.1628,34.42,21,31,2.98,BR,1720369136
291,margate,51.3813,1.3862,16.84,70,100,0.89,GB,1720369137
292,jinka,5.65,36.65,19.08,80,59,0.98,ET,1720369138
293,gandajika,-6.75,23.95,28.11,19,75,0.78,CD,1720369139
294,welshpool,52.6597,-3.1471,17.71,68,86,3.37,GB,1720369140
295,san carlos del zulia,9.0,-71.9135,32.04,54,2,2.01,VE,1720369141
296,martapura,-3.4167,114.85,27.05,94,100,1.54,ID,1720369143
297,christchurch,-43.5333,172.6333,4.97,84,8,2.18,NZ,1720369144
298,zhezqazghan,47.7833,67.7667,19.32,72,40,6.0,KZ,1720369145
299,saryaghash,41.45,69.1667,24.96,40,93,6.47,KZ,1720369146
300,st. john's,47.5649,-52.7093,19.53,95,100,8.75,CA,1720369147
301,kidal,18.4411,1.4078,41.27,16,2,5.28,ML,1720369148
302,constitucion,-35.3333,-72.4167,11.02,51,0,2.53,CL,1720369150
303,brisas de zicatela,15.8369,-97.0419,30.29,70,75,1.54,MX,1720369151
304,awjilah,29.1081,21.2869,35.5,17,0,6.5,LY,1720369152
305,kamiiso,41.8167,140.65,19.21,100,100,4.63,JP,1720369153
306,hithadhoo,-0.6,73.0833,28.92,72,100,2.58,MV,1720369155
307,tabou,4.423,-7.3528,26.27,76,98,6.06,CI,1720369156
308,zhalantun,48.0,122.7167,20.94,65,98,3.46,CN,1720369157
309,atkarsk,51.8718,45.0078,24.47,50,5,6.94,RU,1720369158
310,makurazaki,31.2667,130.3167,26.9,87,64,3.38,JP,1720369159
311,kapa'a,22.0752,-159.319,24.18,84,20,5.14,US,1720369160
312,horta,38.5333,-28.6333,25.8,90,40,7.72,PT,1720369161
313,kununurra,-15.7667,128.7333,16.99,88,1,0.51,AU,1720369162
314,januaria,-15.4833,-44.3667,31.4,32,45,2.54,BR,1720369007
315,praia da vitoria,38.7333,-27.0667,31.14,51,20,5.29,PT,1720369164
316,carutapera,-1.195,-46.02,30.13,60,22,4.21,BR,1720369165
317,kulhudhuffushi,6.6221,73.07,28.36,76,100,5.47,MV,1720369166
318,sodra sandby,56.5667,16.6167,19.92,71,22,9.82,SE,1720369168
319,naudero,27.6648,68.3622,35.01,35,22,5.38,PK,1720369169
320,kupang,-10.1667,123.5833,27.32,83,40,3.09,ID,1720369170
321,saynshand,44.8824,110.1163,25.74,32,0,7.08,MN,1720369171
322,rudnya,54.947,31.0934,20.95,74,27,5.49,RU,1720369172
323,fisterra,42.9049,-9.2629,20.01,70,58,3.21,ES,1720369173
324,danshui,22.7984,114.4672,28.24,82,4,1.95,CN,1720369174
325,crane,31.3974,-102.3501,30.71,39,37,6.34,US,1720369175
326,los andes,-32.8337,-70.5983,15.01,32,1,0.94,CL,1720368947
327,morondava,-20.2833,44.2833,22.78,70,0,5.4,MG,1720369178
328,taroa,8.7058,171.2275,27.86,78,100,6.31,MH,1720369179
329,kalifornsky,60.4183,-151.29,11.17,87,100,5.14,US,1720369180
330,tuy hoa,13.0833,109.3,25.18,91,91,1.46,VN,1720369181
331,bossangoa,6.4926,17.4552,27.29,67,100,2.11,CF,1720369182
332,arraias,-12.9288,-46.9437,31.64,25,35,1.77,BR,1720369184
333,cadillac,44.2519,-85.4012,23.95,57,0,2.57,US,1720369185
334,samba,32.5667,75.1167,32.55,52,5,1.88,IN,1720369186
335,kegeyli shahar,42.7767,59.6078,28.05,40,0,5.3,UZ,1720369187
336,ivdel',60.6911,60.4206,21.63,61,8,0.93,RU,1720369189
337,north bay,46.3168,-79.4663,22.75,88,75,2.06,CA,1720369190
338,zaragoza,41.6561,-0.8773,28.03,42,0,3.09,ES,1720369191
339,vila velha,-20.3297,-40.2925,28.97,99,20,5.66,BR,1720368997
340,nicoya,10.1483,-85.452,29.07,72,91,1.43,CR,1720369193
341,gorontalo,0.5412,123.0595,23.93,97,61,0.74,ID,1720369194
342,kimbe,-5.5502,150.1429,24.79,86,93,3.14,PG,1720369195
343,bonthe,7.5264,-12.505,26.33,78,100,4.95,SL,1720369196
344,punta umbria,37.1821,-6.9661,25.21,46,0,10.22,ES,1720369197
345,vernon,50.2581,-119.2691,24.78,36,0,1.54,CA,1720369188
346,minas de marcona,-15.2119,-75.1103,15.5,64,100,6.96,PE,1720369199
347,port blair,11.6667,92.75,26.02,89,40,0.51,IN,1720369200
348,savanna-la-mar,18.219,-78.1332,30.97,49,99,6.32,JM,1720369202
349,lerwick,60.1545,-1.1494,13.0,85,100,5.47,GB,1720368921
350,sturgeon bay,44.8342,-87.377,24.98,73,0,3.6,US,1720368928
351,nueva gerona,21.8833,-82.8,31.14,61,18,7.46,CU,1720369205
352,lompoc,34.6391,-120.4579,18.08,96,100,0.0,US,1720369206
353,wynyard,-41.0,145.7167,10.75,83,95,5.47,AU,1720369207
354,al jawf,29.5,38.75,36.56,14,1,2.45,SA,1720369208
355,lake park,26.8003,-80.0664,34.45,66,0,2.06,US,1720369209
356,la sarre,48.8002,-79.1996,23.24,63,2,2.14,CA,1720369210
357,puerto baquerizo moreno,-0.9,-89.6,23.55,88,75,4.63,EC,1720369030
358,nueva esperanza,15.2667,-87.6,27.79,84,100,0.77,HN,1720369212
359,aransas pass,27.9095,-97.15,30.03,86,75,8.23,US,1720369213
360,mont-roig del camp,41.75,1.1833,28.77,35,1,2.63,ES,1720369214
361,big spring,32.2504,-101.4787,30.13,53,0,6.69,US,1720369033
362,san pedro pochutla,15.7333,-96.4667,31.51,58,97,1.81,MX,1720369216
363,belmonte,-15.8631,-38.8828,26.52,62,2,2.96,BR,1720369217
364,kirov,58.5966,49.6601,20.08,56,23,3.39,RU,1720369219
365,swift current,50.2834,-107.8014,20.45,60,0,3.09,CA,1720369220
366,broken hill,-31.95,141.4333,11.93,83,91,4.6,AU,1720369221
367,muroto-misakicho,33.2833,134.15,25.9,94,89,3.96,JP,1720369222
368,oltinko'l,40.8011,72.1634,31.21,25,74,4.27,UZ,1720369223
369,marquard,-28.6645,27.4305,12.49,18,0,9.5,ZA,1720369224
370,mvurwi,-17.0333,30.85,14.84,21,0,1.76,ZW,1720369225
371,wenxing,28.6667,112.8833,27.55,77,28,3.94,CN,1720369226
372,quatre cocos,-20.2078,57.7625,22.27,80,21,2.33,MU,1720369227
373,el nido,11.1858,119.3956,27.32,84,96,2.53,PH,1720369228
374,rio gallegos,-51.6226,-69.2181,0.03,93,0,5.66,AR,1720368975
375,talikota,16.4833,76.3167,24.47,72,100,7.92,IN,1720369230
376,harper,4.375,-7.7169,26.04,77,88,6.0,LR,1720369231
377,katsuura,35.1333,140.3,24.08,93,97,5.2,JP,1720369232
378,zaki biam,7.5167,9.6167,29.84,63,100,2.39,NG,1720369233
379,las palmas de gran canaria,28.0997,-15.4134,25.07,61,40,11.83,ES,1720369234
380,den burg,53.0542,4.7972,16.65,82,75,9.26,NL,1720369235
381,kundiawa,-6.0167,144.9667,15.63,98,100,0.52,PG,1720369237
382,richards bay,-28.783,32.0377,24.07,16,4,7.27,ZA,1720369238
383,nizhnevartovsk,60.9344,76.5531,19.01,59,0,3.0,RU,1720369239
384,tiebo,14.6333,-16.2333,29.06,84,40,2.06,SN,1720369240
385,polyarnyy,69.1989,33.4478,12.97,90,100,7.89,RU,1720369241
386,tomatlan,19.9333,-105.25,31.05,65,30,0.41,MX,1720369242
387,yaren,-0.5472,166.916,27.76,77,100,3.15,NR,1720369243
388,rikaze,29.25,88.8833,16.74,48,63,3.05,CN,1720369245
389,santyoku,37.4406,129.1708,23.25,99,100,1.8,KR,1720369246
390,yanchep,-31.55,115.6833,11.08,64,61,2.59,AU,1720369247
391,longido,-2.7333,36.6833,23.34,53,89,4.47,TZ,1720369248
392,arish,31.1316,33.7984,27.97,67,0,5.09,EG,1720369249
393,tolanaro,-25.0319,46.9987,21.04,78,40,3.09,MG,1720369250
394,djambala,-2.5447,14.7533,27.83,41,91,2.06,CG,1720369253
395,asubulaq,49.5583,83.0558,16.09,80,87,1.95,KZ,1720369254
396,golyshmanovo,56.3979,68.3728,18.09,82,19,3.37,RU,1720369255
397,bayanhongor,46.7167,100.1167,15.82,35,100,2.09,MN,1720369256
398,purranque,-40.9167,-73.1667,6.27,83,26,0.89,CL,1720369056
399,cedeira,43.6797,-8.0209,19.04,68,87,4.39,ES,1720369258
400,sendafa,9.15,39.0333,15.46,79,75,0.51,ET,1720369260
401,mount pearl,47.5166,-52.7813,19.07,95,100,8.75,CA,1720369261
402,south hedland,-20.4089,118.5983,14.96,55,12,2.06,AU,1720369262
403,zhangjiakou,40.81,114.8794,21.36,63,57,2.08,CN,1720369263
404,nacala,-14.5428,40.6728,22.34,64,4,3.94,MZ,1720369264
405,caleta de carquin,-11.0925,-77.6267,19.93,78,100,5.02,PE,1720369265
406,victorica,-36.2151,-65.4359,6.57,36,0,1.82,AR,1720369266
407,salalah,17.0151,54.0924,28.05,94,100,3.09,OM,1720369267
408,santo domingo zanatepec,16.4831,-94.3475,31.48,59,92,1.48,MX,1720369268
409,palikir - national government center,6.9248,158.1611,24.41,100,40,0.0,FM,1720369269
410,sechura,-5.5569,-80.8222,23.22,65,100,4.82,PE,1720369270
411,wad rawah,15.1603,33.1397,33.14,39,98,7.85,SD,1720369272
412,saint-francois,46.4154,3.9054,22.58,48,0,3.6,FR,1720369273
413,axim,4.8699,-2.2405,26.66,76,69,4.79,GH,1720369274
414,tadine,-21.55,167.8833,20.46,52,100,6.78,NC,1720369275
415,springs,-26.25,28.4,14.71,26,0,4.97,ZA,1720369276
416,pochinki,54.6988,44.8668,21.19,62,9,2.3,RU,1720369277
417,phaltan,17.9833,74.4333,25.1,75,100,6.36,IN,1720369278
418,maba,24.6841,113.5984,28.88,20,4,1.92,CN,1720369279
419,tionk essil,12.7856,-16.5217,28.03,73,100,6.58,SN,1720369280
420,weatherford,32.7593,-97.7972,31.65,65,0,2.24,US,1720369020
421,ternate,0.8,127.4,26.14,83,100,0.67,ID,1720369283
422,mejit,10.2753,170.8646,27.7,80,96,6.1,MH,1720369284
423,lahaina,20.8783,-156.6825,23.9,71,9,3.79,US,1720369285
424,jiexiu,37.0244,111.9125,23.73,67,75,0.48,CN,1720369286
425,dinguiraye,11.3,-10.7167,27.68,69,100,2.39,GN,1720369288
426,candolim,15.5181,73.7626,26.53,80,100,5.88,IN,1720369289
427,rurrenabaque,-14.4413,-67.5278,22.94,83,75,2.06,BO,1720369290
428,kontcha,7.9667,12.2333,26.94,76,84,2.72,CM,1720369291
429,tangalle,6.024,80.7911,26.52,85,73,4.78,LK,1720369292
430,choele choel,-39.2667,-65.6833,6.35,51,4,2.93,AR,1720369293
431,kambove,-10.8764,26.5969,18.67,26,24,0.58,CD,1720369294
432,ebon,4.582,168.6964,28.37,78,100,5.71,MH,1720369295
433,sao jose de piranhas,-7.1206,-38.5019,29.37,50,92,3.43,BR,1720369296
434,khovd,48.0056,91.6419,18.76,51,50,1.75,MN,1720369297
435,khada,27.1833,83.8833,25.61,85,98,3.23,IN,1720369298
436,"laikit, laikit ii (dimembe)",1.4792,124.9735,22.47,100,40,0.51,ID,1720369299
437,balaklava,44.5,33.6,29.1,45,0,2.22,UA,1720369300
438,burry port,51.6843,-4.2469,17.18,75,0,9.77,GB,1720369301
439,mar del plata,-38.0023,-57.5575,7.51,59,75,6.69,AR,1720369014
440,vanimo,-2.6741,141.3028,25.78,91,100,3.39,PG,1720369303
441,labytnangi,66.6572,66.4183,21.59,60,71,1.26,RU,1720369304
442,blythe,33.6103,-114.5964,35.25,36,0,8.23,US,1720369305
443,ndele,8.4109,20.6473,23.39,83,100,0.79,CF,1720369307
444,union hidalgo,16.4723,-94.8295,31.53,57,99,3.26,MX,1720369308
445,wenchang,30.904,118.4887,28.66,77,91,2.11,CN,1720369309
446,hillsboro,45.5229,-122.9898,26.45,53,0,0.89,US,1720369016
447,tayu,-6.5397,111.0518,26.17,80,20,2.96,ID,1720369311
448,shurugwi,-19.6702,30.0059,16.45,16,0,3.43,ZW,1720369148
449,sarpol-e zahab,34.4611,45.8626,34.04,18,0,3.07,IR,1720369313
450,al bawiti,28.3492,28.8659,35.26,21,4,6.27,EG,1720369314
451,tucurui,-3.7661,-49.6725,32.07,46,0,1.97,BR,1720369315
452,lesnoy,57.6198,63.0784,19.25,73,8,2.11,RU,1720369316
453,carauari,-4.8828,-66.8958,33.23,49,23,1.26,BR,1720369317
454,klyuchi,52.2667,79.1667,22.49,63,66,2.06,RU,1720369318
455,parfino,57.9731,31.6481,25.74,53,2,6.45,RU,1720369319
456,kodinsk,58.6881,99.1844,21.26,83,98,1.65,RU,1720369320
457,badger,64.8,-147.5333,10.95,93,100,3.09,US,1720369321
458,gbarnga,6.9956,-9.4722,25.35,91,83,2.43,LR,1720369322
459,chegdomyn,51.1167,133.0167,14.38,98,99,0.74,RU,1720369323
460,holdrege,40.4403,-99.3698,18.95,82,75,4.12,US,1720369049
461,nadym,65.5333,72.5167,14.97,61,53,4.3,RU,1720369326
462,kuragino,53.8975,92.6725,17.91,95,100,5.85,RU,1720369327
463,sungai penuh,-2.0833,101.3833,19.2,97,92,1.18,ID,1720369328
464,cole harbour,44.6724,-63.4751,22.12,89,100,1.34,CA,1720369329
465,kruisfontein,-34.0033,24.7314,16.05,46,79,5.59,ZA,1720369330
466,nouadhibou,20.931,-17.0347,25.99,61,0,4.63,MR,1720369331
467,saudarkrokur,65.7461,-19.6394,9.44,66,36,2.6,IS,1720369332
468,tyuratam,45.6507,63.3156,29.16,31,29,7.26,KZ,1720369333
469,buenaventura,3.8801,-77.0312,29.12,77,93,1.46,CO,1720369200
470,abha,18.2164,42.5053,24.9,38,20,4.12,SA,1720369288
471,daulatpur,26.5015,67.9706,38.88,38,98,5.64,PK,1720369336
472,nizhneudinsk,54.9076,99.0276,17.7,97,79,1.98,RU,1720369337
473,shiguai,40.7058,110.2856,20.57,47,100,0.71,CN,1720369338
474,ormara,25.2088,64.6357,28.54,92,93,5.64,PK,1720369339
475,pacific grove,36.6177,-121.9166,18.57,89,0,3.13,US,1720369340
476,solleftea,63.1667,17.2667,15.92,91,66,4.46,SE,1720369341
477,kourou,5.1552,-52.6478,32.03,59,92,3.27,GF,1720369342
478,xudat,41.631,48.681,27.31,50,98,1.02,AZ,1720369343
479,basoko,1.2391,23.616,25.99,76,86,1.73,CD,1720369344
480,ingeniero jacobacci,-41.3427,-69.5448,-0.87,64,7,0.62,AR,1720369346
481,alesund,62.4723,6.1549,14.08,77,75,3.6,NO,1720369347
482,conde,-7.2597,-34.9075,27.7,69,75,7.2,BR,1720369348
483,youghal,51.95,-7.8506,15.56,83,42,5.26,IE,1720369350
484,geraldton,-28.7667,114.6,15.23,88,100,5.14,AU,1720369133
485,abu jibeha,11.4562,31.2285,28.07,55,95,2.7,SD,1720369352
486,phillip island,-38.4835,145.231,7.35,66,97,4.82,AU,1720369353
487,corvallis,44.5646,-123.262,27.28,54,0,0.45,US,1720369055
488,semey,50.4111,80.2275,21.12,83,40,3.0,KZ,1720369355
489,nahiyat ash shinafiyah,31.5874,44.6602,42.45,11,0,7.42,IQ,1720369356
490,namibe,-15.1961,12.1522,19.05,76,11,4.88,AO,1720369357
491,gadzhiyevo,69.2551,33.3362,13.36,90,100,7.82,RU,1720369358
492,rio grande,-32.035,-52.0986,11.64,63,6,5.65,BR,1720369263
493,prince albert,53.2001,-105.7677,21.97,60,75,2.06,CA,1720369088
494,tibati,6.4667,12.6333,25.15,78,76,0.29,CM,1720369361
495,robertsport,6.7533,-11.3686,25.82,83,100,5.62,LR,1720369363
496,okha,53.5739,142.9478,9.21,99,100,3.16,RU,1720369364
497,ntoum,0.3833,9.7833,26.87,69,99,1.41,GA,1720369365
498,as sulayyil,20.4607,45.5779,41.14,6,92,4.29,SA,1720369366
499,tindouf,27.6711,-8.1474,39.25,8,0,8.23,DZ,1720369367
500,tralee,52.2704,-9.7026,14.14,72,75,2.06,IE,1720369368
501,along,28.1667,94.7667,22.21,98,100,0.63,IN,1720369369
502,medicine hat,50.0501,-110.6683,22.95,56,20,3.6,CA,1720369146
503,kayenta,36.7278,-110.2546,30.08,7,0,5.45,US,1720369371
504,karratha,-20.7377,116.8463,18.85,48,14,1.82,AU,1720369372
505,patterson,37.4716,-121.1297,32.23,52,0,1.71,US,1720369373
506,imbituba,-28.24,-48.6703,14.36,97,100,4.43,BR,1720369374
507,uvinza,-5.1036,30.3911,26.02,38,47,3.11,TZ,1720369375
508,boca suno,-0.7167,-77.1333,26.77,91,98,1.18,EC,1720369376
509,murghob,38.1702,73.9667,10.76,30,65,0.14,TJ,1720369377
510,norilsk,69.3535,88.2027,18.04,49,3,5.61,RU,1720369378
511,yermakovskoye,53.2831,92.4003,17.72,98,100,3.94,RU,1720369379
512,t'ongch'on-up,38.9539,127.8917,23.44,88,100,3.64,KP,1720369380
513,antsohihy,-14.8796,47.9875,22.89,65,2,1.82,MG,1720369382
514,dawson creek,55.7666,-120.2362,23.8,41,0,1.03,CA,1720369383
515,torghay,49.6339,63.4981,25.71,47,100,7.69,KZ,1720369384
516,dno,57.8277,29.9637,25.38,58,53,6.93,RU,1720369385
517,hilo,19.7297,-155.09,21.85,88,20,2.57,US,1720369386
518,le port,-20.9373,55.2919,22.0,93,22,1.78,RE,1720369387
519,auchi,7.0667,6.2667,26.46,87,93,2.92,NG,1720369388
520,prince rupert,54.3161,-130.3201,15.83,85,0,1.54,CA,1720369389
521,van,38.4924,43.3831,24.64,38,75,6.17,TR,1720369116
522,east london,-33.0153,27.9116,19.52,34,0,5.66,ZA,1720369391
523,keflavik,64.0049,-22.5624,11.95,82,40,9.26,IS,1720369392
524,matthew town,20.95,-73.6667,29.46,73,96,4.19,BS,1720369393
525,caconda,-13.7333,15.0667,24.33,11,37,2.0,AO,1720369394
526,phalia,32.4297,73.5775,34.61,48,0,0.85,PK,1720369395
527,tromso,69.6496,18.957,13.01,82,0,5.14,NO,1720369396
528,cheremukhovo,60.3484,59.9851,20.81,65,2,1.06,RU,1720369397
529,pasni,25.2631,63.471,29.08,86,64,4.59,PK,1720369398
530,fort st. john,56.2499,-120.8529,21.94,49,0,4.63,CA,1720369399
531,raton,36.9034,-104.4391,21.34,46,0,7.2,US,1720369401
532,upata,8.0086,-62.3989,29.0,78,61,2.3,VE,1720369402
533,tatahuicapan,18.2333,-94.75,29.35,68,40,1.54,MX,1720369403
534,aleksandrovskoye,44.7142,43.0008,32.68,24,100,3.44,RU,1720369404
535,igrim,63.1906,64.4162,21.73,56,8,2.31,RU,1720369405
536,al ghayzah,16.2079,52.176,27.59,82,82,6.64,YE,1720369406
537,duba,27.3513,35.6901,32.58,50,0,1.97,SA,1720369407
538,sao gabriel da cachoeira,-0.1303,-67.0892,29.89,70,40,1.03,BR,1720369408
539,rosetta,31.4044,30.4164,27.11,68,0,7.08,EG,1720369409
540,plavinas,56.6178,25.7255,17.56,92,99,2.66,LV,1720369410
541,santana,-0.0583,-51.1817,32.1,66,20,4.12,BR,1720369411
542,victoria,22.2855,114.1577,31.29,80,3,3.58,HK,1720369298
